[
  {
    "id": "san_phra_kan",
    "name": "ศาลพระกาฬ",
    "lat": 14.802287909472112,
    "lng": 100.61496708141819
  },
  {
    "id": "wat_phra_si_rattana_mahathat",
    "name": "วัดพระศรีรัตนมหาธาตุ",
    "lat": 14.798663447978457,
    "lng": 100.61392979704995
  },
  {
    "id": "somdet_phra_narai_national_museum",
    "name": "พิพิธภัณฑสถานแห่งชาติ สมเด็จพระนารายณ์",
    "lat": 14.799946031091665,
    "lng": 100.61062477832306
  },
  {
    "id": "ban_wichayen",
    "name": "บ้านหลวงรับราชทูต (บ้านวิชาเยนทร์)",
    "lat": 14.803030179474138,
    "lng": 100.61025634267828
  },
  {
    "id": "phra_prang_sam_yot",
    "name": "พระปรางค์สามยอด",
    "lat": 14.802954339657207,
    "lng": 100.61404368122102
  },
  {
    "id": "wat_pa_tham_sophon",
    "name": "วัดป่าธรรมโสภณ",
    "lat": 14.808119199150813,
    "lng": 100.61395740050966
  },
  {
    "id": "wat_tong_pu",
    "name": "วัดตองปุ",
    "lat": 14.807539977548199,
    "lng": 100.61643287231266
  }
]